"Location", "Latitude", "Longitude"
"Sunfish Pond", 41.64279, -76.70205
"Gunks", 41.736474, -74.194007
"Nine Corners", 43.19116205411286, -74.52740475330744
"Snowy Mountain", 43.69372470287462, -74.34125773372136
"Niagara Glen", 43.132852818965034, -79.05492089327363
"Rim Rock", 41.8439042, -78.9462582
"Maxwell Run", 41.3478773, -78.9115350
"Haycock", 40.50495284053149, -75.22974389559734
"Powerlinez", 41.1416211674351, -74.16130647650336